City_ID,City,Country,Lat,Lng,Max Temp,Humidity,Cloudiness,Wind Speed,Current Description
0,Mataura,NZ,-46.1927,168.8643,44.47,82,100,6.69,overcast clouds
1,Poykovskiy,RU,61.2333,73.3333,70.09,68,0,6.71,clear sky
2,Kirakira,SB,-10.4544,161.9205,77.16,89,97,9.33,overcast clouds
3,Ponta Do Sol,PT,32.6667,-17.1,85.71,69,85,2.42,overcast clouds
4,Kristinehamn,SE,59.3098,14.1081,67.98,66,7,20.98,light rain
5,Asosa,ET,10.0667,34.5333,66.9,93,74,3.71,light rain
6,Barrow,US,71.2906,-156.7887,44.62,87,90,21.85,light rain
7,Port Alfred,ZA,-33.5906,26.891,61.38,66,75,18.68,broken clouds
8,Punta Arenas,CL,-53.15,-70.9167,35.62,96,100,1.25,overcast clouds
9,Hermanus,ZA,-34.4187,19.2345,59.81,65,0,15.88,clear sky
10,Saldanha,ZA,-33.0117,17.9442,68.05,64,0,12.28,clear sky
11,Hilo,US,19.7297,-155.09,71.8,93,90,8.05,moderate rain
12,Kruisfontein,ZA,-34.0033,24.7314,57.88,72,100,12.75,overcast clouds
13,Port Macquarie,AU,-31.4333,152.9167,49.96,100,40,0.0,scattered clouds
14,Sinnamary,GF,5.3833,-52.95,81.95,78,55,9.37,broken clouds
15,Upernavik,GL,72.7868,-56.1549,45.91,93,100,8.05,overcast clouds
16,Yellowknife,CA,62.456,-114.3525,59.13,83,54,2.57,light rain
17,Llallagua,BO,-18.4167,-66.6333,47.89,12,2,5.77,clear sky
18,Esperance,AU,-33.8667,121.9,55.76,81,20,9.51,few clouds
19,Cabo San Lucas,MX,22.8909,-109.9124,87.8,69,1,3.0,clear sky
20,Albany,US,42.6001,-73.9662,80.46,72,81,3.0,broken clouds
21,Longyearbyen,SJ,78.2186,15.6401,46.24,61,20,9.22,few clouds
22,Saskylakh,RU,71.9167,114.0833,52.5,63,100,5.44,overcast clouds
23,Solnechnyy,RU,50.7214,136.6319,60.03,74,53,3.49,broken clouds
24,Waingapu,ID,-9.6567,120.2641,77.11,82,47,13.02,scattered clouds
25,Tual,ID,-5.6667,132.75,80.04,84,83,19.24,broken clouds
26,Leningradskiy,RU,69.3833,178.4167,40.91,84,99,20.11,overcast clouds
27,Leh,IN,34.1667,77.5833,62.06,40,80,7.92,broken clouds
28,Umm Lajj,SA,25.0213,37.2685,90.97,61,0,13.2,clear sky
29,Katsuura,JP,35.1333,140.3,71.71,91,100,23.96,overcast clouds
30,Inirida,CO,3.8653,-67.9239,81.55,74,100,1.05,overcast clouds
31,Ushuaia,AR,-54.8,-68.3,37.06,70,20,0.0,few clouds
32,Champerico,GT,14.3,-91.9167,89.35,81,87,1.57,overcast clouds
33,Severo-Kurilsk,RU,50.6789,156.125,52.48,87,10,8.23,clear sky
34,Rikitea,PF,-23.1203,-134.9692,74.12,81,100,16.58,overcast clouds
35,Vaini,TO,-21.2,-175.2,66.36,82,20,8.05,few clouds
36,Bluff,NZ,-46.6,168.3333,44.8,76,96,25.28,overcast clouds
37,Terney,RU,45.0503,136.6092,56.1,89,15,4.85,few clouds
38,Port Elizabeth,ZA,-33.918,25.5701,60.1,72,0,12.66,clear sky
39,Acapulco,MX,16.8634,-99.8901,84.02,70,40,3.44,scattered clouds
40,Geraldton,AU,-28.7667,114.6,48.61,93,0,8.05,clear sky
41,Lotoshino,RU,56.2267,35.6414,71.53,56,92,7.81,overcast clouds
42,Cape Town,ZA,-33.9258,18.4232,64.81,63,0,1.01,clear sky
43,Port Hawkesbury,CA,45.6169,-61.3485,87.01,77,1,5.99,clear sky
44,Pevek,RU,69.7008,170.3133,37.72,93,100,23.26,light rain
45,Jamestown,US,42.097,-79.2353,74.17,65,51,8.21,broken clouds
46,Garissa,KE,-0.4536,39.6401,86.52,40,86,22.88,overcast clouds
47,Bonthe,SL,7.5264,-12.505,79.07,74,100,12.53,overcast clouds
48,Angra Dos Reis,BR,-23.0067,-44.3181,67.96,92,99,2.89,overcast clouds
49,Saravan,AM,39.7196,45.6483,83.05,41,56,8.46,broken clouds
50,Mala,PE,-12.6581,-76.6308,65.93,70,74,5.37,broken clouds
51,Provideniya,RU,64.3833,-173.3,47.34,99,100,5.61,overcast clouds
52,Clyde River,CA,70.4692,-68.5914,41.23,93,90,8.05,mist
53,Luderitz,NA,-26.6481,15.1594,69.48,35,0,20.0,clear sky
54,Hobart,AU,-42.8794,147.3294,53.46,62,90,3.0,overcast clouds
55,Ahipara,NZ,-35.1667,173.1667,54.7,83,37,11.79,scattered clouds
56,Isangel,VU,-19.55,169.2667,66.42,78,65,13.98,broken clouds
57,Ancud,CL,-41.8697,-73.8203,44.13,78,100,4.25,overcast clouds
58,Shawville,CA,45.6001,-76.4827,75.67,52,0,11.16,clear sky
59,Avarua,CK,-21.2078,-159.775,69.85,78,75,6.91,broken clouds
60,Pangnirtung,CA,66.1451,-65.7125,53.6,82,90,9.22,moderate rain
61,Atuona,PF,-9.8,-139.0333,77.54,79,34,15.9,scattered clouds
62,Guanay,BO,-15.4975,-67.8797,81.66,45,50,2.46,scattered clouds
63,Playa Vicente,MX,17.8333,-95.8167,78.94,85,20,5.35,few clouds
64,Nampula,MZ,-15.1165,39.2666,76.95,50,40,13.8,scattered clouds
65,Bredasdorp,ZA,-34.5322,20.0403,59.29,55,0,14.97,clear sky
66,Puerto Ayora,EC,-0.7393,-90.3518,71.56,76,94,6.06,overcast clouds
67,Bethel,US,41.3712,-73.414,86.49,86,20,1.99,few clouds
68,Saint-Leu,RE,-21.15,55.2833,72.43,80,24,16.44,light rain
69,Thompson,CA,55.7435,-97.8558,62.76,82,75,3.44,broken clouds
70,Talnakh,RU,69.4865,88.3972,54.12,86,100,6.49,overcast clouds
71,Evensk,RU,61.95,159.2333,49.5,98,100,4.92,overcast clouds
72,Bocas Del Toro,PA,9.3333,-82.25,80.67,76,100,1.88,overcast clouds
73,Castro,BR,-24.7911,-50.0119,57.27,85,93,6.44,moderate rain
74,Margate,GB,51.3813,1.3862,76.86,57,46,7.58,scattered clouds
75,Busselton,AU,-33.65,115.3333,47.08,85,0,7.96,clear sky
76,Comodoro Rivadavia,AR,-45.8667,-67.5,58.86,38,0,4.61,clear sky
77,Kavieng,PG,-2.5744,150.7967,83.7,75,54,15.23,broken clouds
78,Bambous Virieux,MU,-20.3428,57.7575,73.65,78,75,11.5,light rain
79,Manhattan,US,40.7834,-73.9662,89.62,62,1,4.61,clear sky
80,General Roca,AR,-39.0333,-67.5833,54.0,30,0,9.95,clear sky
81,Vestmannaeyjar,IS,63.4427,-20.2734,58.19,82,20,17.27,few clouds
82,Chokurdakh,RU,70.6333,147.9167,41.67,72,100,12.82,overcast clouds
83,Asbe Teferi,ET,9.0833,40.8667,68.9,72,44,7.58,light rain
84,Tarakan,ID,3.3,117.6333,78.3,94,20,2.3,few clouds
85,Disna,BY,55.568,28.1971,75.36,57,99,12.28,overcast clouds
86,Kenai,US,60.5544,-151.2583,47.03,93,90,0.0,light rain
87,Tasiilaq,GL,65.6145,-37.6368,48.36,80,28,3.02,scattered clouds
88,Telimele,GN,10.9167,-13.3333,75.65,92,99,4.92,moderate rain
89,Nalut,LY,30.3333,10.85,99.57,14,4,11.99,clear sky
90,Yulara,AU,-25.2406,130.9889,58.84,29,8,8.05,clear sky
91,Lebu,CL,-37.6167,-73.65,49.98,76,100,4.14,overcast clouds
92,Bowen,AU,-20.0167,148.2333,65.75,88,71,12.21,broken clouds
93,Moranbah,AU,-22.0016,148.0466,59.47,87,47,10.36,scattered clouds
94,Saint George,US,37.1041,-113.5841,88.43,38,1,3.0,clear sky
95,Carnarvon,AU,-24.8667,113.6333,60.87,53,0,11.5,clear sky
96,Gafanha Da Encarnacao,PT,40.6181,-8.733,82.27,76,95,13.2,overcast clouds
97,Namibe,AO,-15.1961,12.1522,68.63,88,90,11.5,overcast clouds
98,Narsaq,GL,60.9167,-46.05,52.02,75,100,2.84,overcast clouds
99,Iskateley,RU,67.6803,53.1512,56.88,94,100,11.9,overcast clouds
100,Cherskiy,RU,68.75,161.3,41.85,80,66,7.52,broken clouds
101,Lodeynoye Pole,RU,60.726,33.5531,61.0,93,100,6.71,overcast clouds
102,Awbari,LY,26.5921,12.7805,97.25,14,0,15.39,clear sky
103,Butaritari,KI,3.0707,172.7902,82.54,75,61,9.22,light rain
104,Waipawa,NZ,-41.4122,175.5153,38.3,86,16,5.06,few clouds
105,Caravelas,BR,-17.7125,-39.2481,78.3,54,12,7.9,few clouds
106,Faya,SA,18.3851,42.4509,84.72,27,64,11.16,broken clouds
107,Iqaluit,CA,63.7506,-68.5145,44.33,81,75,12.66,broken clouds
108,Stubbekobing,DK,54.8887,12.041,69.06,76,99,20.83,overcast clouds
109,Grand Gaube,MU,-20.0064,57.6608,73.8,71,0,3.0,clear sky
110,Kang,BW,-23.6752,22.7876,75.9,26,2,14.25,clear sky
111,Lumeje,AO,-11.55,20.7833,89.17,11,4,3.02,clear sky
112,Nemuro,JP,43.3236,145.575,56.68,82,100,12.15,overcast clouds
113,Vostok,RU,46.4856,135.8833,58.14,76,91,2.53,overcast clouds
114,Qaanaaq,GL,77.484,-69.3632,41.79,96,100,3.42,light rain
115,Doka,SD,13.5167,35.7667,80.55,78,94,7.49,overcast clouds
116,Ilulissat,GL,69.2167,-51.1,53.62,87,75,8.05,broken clouds
117,Airai,TL,-8.9266,125.4092,55.42,75,6,3.4,clear sky
118,Hithadhoo,MV,-0.6,73.0833,81.86,75,57,15.39,broken clouds
119,Priamurskiy,RU,48.5217,134.9028,63.01,86,9,2.13,clear sky
120,Pueblo Nuevo,MX,23.3833,-105.3833,65.61,61,3,2.15,clear sky
121,Khatanga,RU,71.9667,102.5,52.29,67,100,3.67,overcast clouds
122,Eyl,SO,7.9803,49.8164,80.1,71,61,25.01,broken clouds
123,Kensington,AU,-33.9167,151.2167,53.15,84,0,5.75,clear sky
124,Perth,AU,-31.9333,115.8333,57.06,89,0,5.75,clear sky
125,Brae,GB,60.3964,-1.353,57.11,74,27,10.89,scattered clouds
126,New Norfolk,AU,-42.7826,147.0587,53.1,62,72,3.0,broken clouds
127,Khorixas,NA,-20.3667,14.9667,86.23,12,0,17.83,clear sky
128,Horta,PT,38.5333,-28.6333,78.44,73,20,20.71,few clouds
129,Dalian,CN,38.9122,121.6022,76.62,78,0,2.24,light rain
130,Mount Isa,AU,-20.7333,139.5,73.17,28,1,8.05,clear sky
131,Srednekolymsk,RU,67.45,153.6833,45.54,94,100,10.31,moderate rain
132,Banfora,BF,10.6333,-4.7667,81.32,76,78,6.02,moderate rain
133,Norman Wells,CA,65.282,-126.8329,51.84,93,90,8.05,light rain
134,Luanda,AO,-8.8368,13.2343,77.0,73,0,9.22,clear sky
135,Sitka,US,57.0531,-135.33,55.29,88,75,6.91,broken clouds
136,Ribeira Grande,PT,38.5167,-28.7,79.2,73,20,20.71,few clouds
137,Mar Del Plata,AR,-38.0023,-57.5575,48.22,100,40,12.66,scattered clouds
138,Bac Lieu,VN,9.285,105.7244,81.09,82,100,7.11,overcast clouds
139,Kodiak,US,57.79,-152.4072,51.31,58,90,9.22,overcast clouds
140,Arraial Do Cabo,BR,-22.9661,-42.0278,66.16,88,90,5.75,light intensity drizzle
141,Najran,SA,17.4924,44.1277,95.65,9,7,15.17,clear sky
142,Varnavino,RU,57.4035,45.0916,71.06,50,95,6.31,overcast clouds
143,Arcachon,FR,44.5875,-1.0519,97.41,58,0,11.5,clear sky
144,Mogadishu,SO,2.0371,45.3438,76.87,85,61,18.77,broken clouds
145,Port-Gentil,GA,-0.7193,8.7815,82.36,69,20,13.8,few clouds
146,Dikson,RU,73.5069,80.5464,45.88,100,100,2.39,overcast clouds
147,Puerto Escondido,MX,15.85,-97.0667,86.83,66,1,5.75,clear sky
148,Kokopo,PG,-4.352,152.2633,77.43,87,7,8.99,clear sky
149,Tautira,PF,-17.7333,-149.15,73.42,76,11,10.67,light rain
150,Rocha,UY,-34.4833,-54.3333,55.27,86,100,6.58,overcast clouds
151,Lavrentiya,RU,65.5833,-171.0,44.8,98,100,6.91,light rain
152,Tuktoyaktuk,CA,69.4541,-133.0374,42.8,87,90,12.66,overcast clouds
153,Antofagasta,CL,-23.65,-70.4,63.21,55,47,7.65,scattered clouds
154,Vila Franca Do Campo,PT,37.7167,-25.4333,75.61,70,10,14.5,clear sky
155,Victoria,HK,22.2855,114.1577,84.25,88,100,1.99,light rain
156,Yauya,PE,-8.9833,-77.3,51.53,63,92,2.71,overcast clouds
157,Riyadh,SA,24.6877,46.7219,109.54,7,70,13.04,broken clouds
158,Fayetteville,US,35.0527,-78.8784,93.11,69,1,1.99,clear sky
159,Korla,CN,41.7597,86.1469,84.04,25,97,9.06,overcast clouds
160,Manokwari,ID,-0.8667,134.0833,77.49,83,62,2.15,broken clouds
161,Codrington,AU,-38.2667,141.9667,46.81,88,7,12.95,clear sky
162,Okhotsk,RU,59.3833,143.3,56.05,93,4,3.56,clear sky
163,Samarai,PG,-10.6167,150.6667,77.92,86,78,17.18,broken clouds
164,Roma,US,43.2128,-75.4557,75.81,79,75,6.91,broken clouds
165,Saint-Philippe,RE,-21.3585,55.7679,72.95,84,44,16.73,light rain
166,Souillac,MU,-20.5167,57.5167,73.78,78,75,11.5,light rain
167,Yar-Sale,RU,66.8333,70.8333,67.06,63,100,16.04,overcast clouds
168,Cartagena,CO,10.3997,-75.5144,83.82,84,40,8.05,scattered clouds
169,Port Said,EG,31.2565,32.2841,84.79,68,0,15.32,clear sky
170,Konin,PL,52.2234,18.2512,80.38,35,2,10.76,clear sky
171,Sisimiut,GL,66.9395,-53.6735,49.01,90,70,15.37,light rain
172,Price,US,39.5994,-110.8107,81.66,21,1,0.0,clear sky
173,Buchanan,LR,5.8808,-10.0467,84.16,64,93,9.37,overcast clouds
174,Mahebourg,MU,-20.4081,57.7,73.69,78,75,11.5,light rain
175,Panzhihua,CN,26.5851,101.7128,70.61,91,100,0.98,overcast clouds
176,Port Hueneme,US,34.1478,-119.1951,82.0,91,90,4.61,mist
177,Trelew,AR,-43.249,-65.3051,58.48,37,29,10.76,scattered clouds
178,Cidreira,BR,-30.1811,-50.2056,62.06,82,47,17.0,moderate rain
179,Lahar,IN,26.1983,78.945,87.76,63,69,9.75,broken clouds
180,Satana,IN,20.5833,74.2,75.49,79,84,10.2,broken clouds
181,Ringe,DK,55.2451,10.4706,71.15,53,69,21.18,broken clouds
182,Arlit,NE,18.7369,7.3853,101.73,21,0,1.97,clear sky
183,Samana,DO,19.2056,-69.3369,85.96,74,40,6.91,scattered clouds
184,Karoi,ZW,-16.8099,29.6925,73.85,27,18,10.25,few clouds
185,Qaqortoq,GL,60.7167,-46.0333,52.3,79,100,5.91,overcast clouds
186,Camopi,GF,3.1655,-52.3158,87.64,54,93,5.14,overcast clouds
187,Sao Felix Do Xingu,BR,-6.6447,-51.995,97.5,28,9,3.89,clear sky
188,Pochutla,MX,15.7432,-96.4661,87.82,65,9,2.64,clear sky
189,Teguldet,RU,57.3064,88.1667,55.42,80,5,5.06,clear sky
190,Sao Filipe,CV,14.8961,-24.4956,75.36,79,81,3.31,broken clouds
191,Arkhangelsk,RU,64.5401,40.5433,66.31,68,20,2.24,few clouds
192,Mbaiki,CF,3.8678,17.9892,86.92,52,41,1.61,scattered clouds
193,Dalianwan,CN,39.0286,121.695,76.73,78,0,2.24,light rain
194,Nadadores,MX,27.05,-101.6,84.88,57,20,0.0,few clouds
195,Porto Novo,BJ,6.4965,2.6036,84.02,63,85,11.7,overcast clouds
196,Mgandu,TZ,-5.95,34.1333,77.99,24,5,10.0,clear sky
197,Los Llanos De Aridane,ES,28.6585,-17.9182,74.95,73,20,17.27,few clouds
198,Saint-Pierre,RE,-21.3393,55.4781,73.04,82,75,21.85,light rain
199,Gejiu,CN,23.306,103.1635,58.46,98,100,1.86,overcast clouds
200,Ponta Delgada,PT,37.7333,-25.6667,75.92,78,40,12.66,scattered clouds
201,Zhanaozen,KZ,43.3,52.8,88.02,15,0,11.72,clear sky
202,Chuy,UY,-33.6971,-53.4616,56.86,92,100,7.56,overcast clouds
203,Cayenne,GF,4.9333,-52.3333,87.84,76,75,3.0,broken clouds
204,Kapaa,US,22.0752,-159.319,79.12,88,90,14.97,light rain
205,Sarankhola,BD,22.3082,89.7897,80.56,91,100,4.99,overcast clouds
206,Santa Clara,CU,22.4,-79.9667,78.46,83,75,11.5,moderate rain
207,Georgetown,MY,5.4112,100.3354,82.33,85,20,1.14,few clouds
208,Port Keats,AU,-14.25,129.55,79.14,46,73,4.65,broken clouds
209,Matamoros,MX,25.5333,-103.25,78.91,49,1,0.0,clear sky
210,Palembang,ID,-2.9167,104.7458,76.84,88,100,1.9,light rain
211,Pisco,PE,-13.7,-76.2167,62.65,82,90,8.05,mist
212,Urucara,BR,-2.5364,-57.76,81.07,71,100,2.77,overcast clouds
213,Deputatskiy,RU,69.3,139.9,40.51,78,98,4.81,overcast clouds
214,San Cristobal,VE,7.7669,-72.225,75.38,96,100,3.49,overcast clouds
215,Komsomolskiy,UZ,40.4272,71.7189,81.32,26,2,4.61,clear sky
216,Nanyuki,KE,0.0167,37.0728,63.86,69,73,11.77,light rain
217,North Bend,US,43.4065,-124.2243,61.16,88,90,0.0,overcast clouds
218,East London,ZA,-33.0153,27.9116,58.14,82,20,8.05,few clouds
219,Kautokeino,NO,69.0125,23.0412,57.4,67,99,1.03,overcast clouds
220,Mecca,SA,21.4267,39.8261,102.61,22,42,11.59,scattered clouds
221,Saint Anthony,US,45.0205,-93.218,77.94,47,1,1.01,clear sky
222,Puerto Ayacucho,VE,5.6639,-67.6236,73.83,94,100,4.92,heavy intensity rain
223,Radenci,SI,46.642,16.0378,94.51,31,3,3.49,clear sky
224,Fort Nelson,CA,58.8053,-122.7002,58.59,88,75,0.0,broken clouds
225,Teya,RU,60.3778,92.6267,55.54,94,100,3.06,overcast clouds
226,Lepe,ES,37.2548,-7.2043,97.0,29,4,8.01,clear sky
227,Sayyan,YE,15.1718,44.3244,71.82,46,83,11.52,broken clouds
228,Kavaratti,IN,10.5669,72.642,81.54,77,91,18.12,overcast clouds
229,Henties Bay,NA,-22.116,14.2845,56.86,66,0,7.63,clear sky
230,Kristiansund,NO,63.1115,7.732,55.45,94,75,9.22,light rain
231,Melita,CA,49.2681,-100.9967,72.54,28,5,7.65,clear sky
232,Ahuimanu,US,21.4447,-157.8378,75.45,78,75,9.22,light rain
233,Nanortalik,GL,60.1432,-45.2371,50.31,90,100,7.74,overcast clouds
234,Biltine,TD,14.5333,20.9167,91.29,41,39,7.16,scattered clouds
235,Lesnoy,RU,57.6198,63.0784,72.01,58,2,6.64,clear sky
236,Port Lincoln,AU,-34.7333,135.8667,52.34,65,0,6.22,clear sky
237,Harper,LR,4.375,-7.7169,80.31,60,86,6.87,overcast clouds
238,Shache,CN,38.4167,77.2406,76.21,36,100,5.14,light rain
239,Ucluelet,CA,48.9329,-125.5528,66.09,89,53,7.94,broken clouds
240,Broome,US,42.2506,-75.833,70.7,83,90,1.99,overcast clouds
241,Zhezkazgan,KZ,47.8043,67.7144,67.08,31,68,17.02,broken clouds
242,Chegdomyn,RU,51.1167,133.0167,58.08,95,53,2.57,broken clouds
243,Karaton,ID,-6.3424,106.1045,78.96,91,18,0.98,few clouds
244,Baker City,US,44.7749,-117.8344,74.19,23,65,1.97,broken clouds
245,Yuryevets,RU,57.3201,43.1041,72.1,54,23,4.72,few clouds
246,Salym,RU,60.0625,71.4789,65.39,71,6,6.35,clear sky
247,Constitucion,CL,-35.3333,-72.4167,53.94,63,98,2.08,overcast clouds
248,Tefe,BR,-3.3542,-64.7114,80.71,89,75,4.61,broken clouds
249,Chiredzi,ZW,-21.05,31.6667,65.82,55,100,7.9,overcast clouds
250,Maldonado,UY,-34.6667,-54.9167,58.39,85,100,5.82,overcast clouds
251,Svetlogorsk,BY,52.6333,29.7333,79.5,39,74,6.71,broken clouds
252,Tromso,NO,69.6496,18.957,57.85,66,75,4.61,broken clouds
253,Jacareacanga,BR,-6.2222,-57.7528,88.27,55,100,2.33,overcast clouds
254,Seoul,KR,37.5683,126.9778,74.71,73,0,6.91,clear sky
255,Sao Domingos,BR,-13.3983,-46.3183,86.41,21,1,9.4,clear sky
256,Aksu,CN,41.1231,80.2644,75.04,38,64,5.5,broken clouds
257,Okha,RU,53.5739,142.9478,55.63,77,14,8.86,few clouds
258,Lotofaga,WS,-13.9764,-171.8578,74.98,78,74,19.95,light rain
259,Yangjiang,CN,21.85,111.9667,80.11,89,100,5.97,moderate rain
260,Bar Harbor,US,44.3876,-68.2039,86.94,77,75,5.99,broken clouds
261,Carson City,US,39.1638,-119.7674,79.12,46,1,0.0,clear sky
262,Kerema,PG,-7.9631,145.7785,78.4,91,99,5.44,overcast clouds
263,Nikolskoye,RU,59.7035,30.7861,71.49,83,92,8.97,overcast clouds
264,San Francisco,US,37.7749,-122.4194,69.04,90,75,1.01,broken clouds
265,Kaeo,NZ,-35.1,173.7833,52.32,92,60,5.86,broken clouds
266,Ust-Omchug,RU,61.15,149.6333,59.97,88,55,6.46,broken clouds
267,Nurota,UZ,40.5614,65.6886,80.69,24,0,19.04,clear sky
268,Nemencine,LT,54.85,25.4833,70.34,81,97,8.03,overcast clouds
269,Juegang,CN,32.3174,121.1855,74.98,89,89,6.13,light rain
270,Auki,SB,-8.7676,160.7034,75.43,89,90,5.1,overcast clouds
271,Hervey Bay,AU,-25.2986,152.8535,60.04,77,5,7.58,clear sky
272,Portland,US,45.5234,-122.6762,72.45,77,40,3.0,smoke
273,Kobryn,BY,52.2138,24.3564,80.91,56,83,7.11,broken clouds
274,San Quintin,MX,30.4833,-115.95,72.86,76,0,9.93,clear sky
275,Valparaiso,CL,-33.0393,-71.6273,50.23,94,75,4.61,mist
276,Buala,SB,-8.145,159.5921,79.63,85,93,10.13,overcast clouds
277,Touros,BR,-5.1989,-35.4608,86.9,51,37,18.5,scattered clouds
278,Northam,GB,51.0333,-4.2167,75.2,72,65,12.26,broken clouds
279,Kasongo-Lunda,CD,-6.4667,16.8167,90.36,35,69,2.48,broken clouds
280,Biak,ID,-0.9131,122.8766,75.24,86,23,7.36,few clouds
281,Kurilsk,RU,45.2333,147.8833,52.29,89,45,8.5,scattered clouds
282,Colorines,MX,19.2,-100.1667,69.73,76,71,0.76,broken clouds
283,Xingcheng,CN,40.6167,120.7167,69.31,77,1,4.97,light rain
284,Jalu,LY,29.0331,21.5482,99.68,20,0,13.42,clear sky
285,Roald,NO,62.5833,6.1333,60.94,77,75,6.91,broken clouds
286,Starobaltachevo,RU,56.0013,55.9213,77.59,52,49,11.01,scattered clouds
287,Monte Patria,CL,-30.6919,-70.9467,67.55,25,100,3.44,overcast clouds
288,Zabol,AF,32.25,67.25,80.35,8,0,11.43,clear sky
289,Diapaga,BF,12.0708,1.7889,81.45,72,95,5.79,overcast clouds
290,Grindavik,IS,63.8424,-22.4338,58.55,82,0,18.41,clear sky
291,Mugur-Aksy,RU,50.35,90.5,54.48,70,100,4.83,overcast clouds
292,Klaksvik,FO,62.2266,-6.589,52.72,93,100,15.03,overcast clouds
293,Richards Bay,ZA,-28.783,32.0377,59.47,78,100,1.59,overcast clouds
294,Marau,BR,-28.4492,-52.2,64.99,70,62,4.5,moderate rain
295,Cantagallo,CO,7.376,-73.9196,76.78,94,100,2.53,overcast clouds
296,Meulaboh,ID,4.1363,96.1285,74.39,93,100,3.71,overcast clouds
297,Usak,TR,38.5,29.4167,84.13,21,2,17.83,clear sky
298,Novyy Nekouz,RU,57.9029,38.07,68.4,67,100,5.99,overcast clouds
299,Arman,RU,59.7,150.1667,55.72,92,100,2.91,overcast clouds
300,Mount Gambier,AU,-37.8333,140.7667,48.4,89,11,8.59,few clouds
301,Udachnyy,RU,66.4167,112.4,50.22,84,100,6.29,overcast clouds
302,Tiksi,RU,71.6872,128.8694,39.99,85,86,5.79,overcast clouds
303,Murud,IN,18.3258,72.965,78.82,83,48,8.1,scattered clouds
304,Kutum,SD,14.2,24.6667,82.47,49,86,13.09,overcast clouds
305,Berezovyy,RU,51.6667,135.7,59.77,87,18,3.04,few clouds
306,Gilgit,PK,35.9221,74.3087,77.5,50,98,1.79,overcast clouds
307,Huron,US,41.1501,-82.5499,77.65,74,71,11.83,broken clouds
308,Hopelchen,MX,19.7667,-89.85,83.48,51,55,1.97,broken clouds
309,Half Moon Bay,US,37.4636,-122.4286,68.79,89,75,0.0,broken clouds
310,Faanui,PF,-16.4833,-151.75,77.92,75,7,5.66,clear sky
311,Maragogi,BR,-9.0122,-35.2225,77.85,76,68,9.26,broken clouds
312,Guiyang,CN,26.5833,106.7167,68.49,94,90,6.71,overcast clouds
313,Olinda,BR,-8.0089,-34.8553,78.53,65,40,17.27,scattered clouds
314,Santiago De Cuba,CU,20.0247,-75.8219,87.42,66,20,4.61,few clouds
315,Port Blair,IN,11.6667,92.75,80.64,83,75,3.44,mist
316,Silifke,TR,36.3778,33.9344,93.24,39,0,4.27,clear sky
317,Goiatuba,BR,-18.0125,-49.3547,85.55,21,3,7.74,clear sky
318,Terrace Bay,CA,48.7834,-87.1,64.02,52,48,10.13,scattered clouds
319,Huaidian,CN,33.4333,115.0333,70.72,92,3,5.23,light rain
320,Russell,US,32.3502,-85.1999,89.06,62,1,4.61,clear sky
321,Nivala,FI,63.9167,24.9667,61.68,91,100,6.08,moderate rain
322,Sao Joao Da Barra,BR,-21.6403,-41.0511,73.49,76,30,5.53,scattered clouds
323,Sarahan,IN,31.5167,77.8,62.26,90,29,0.78,scattered clouds
324,Pietarsaari,FI,63.65,22.6833,64.89,85,100,10.04,overcast clouds
325,Coquimbo,CL,-29.9533,-71.3436,55.13,71,40,3.44,scattered clouds
326,Lompoc,US,34.6391,-120.4579,61.11,98,90,3.44,mist
327,Homer,US,59.6425,-151.5483,51.8,88,90,0.0,overcast clouds
328,Te Anau,NZ,-45.4167,167.7167,41.88,98,100,6.08,overcast clouds
329,Belgaum,IN,15.8667,74.5,68.58,91,77,8.9,broken clouds
330,Stokmarknes,NO,68.5646,14.9108,58.5,73,42,11.68,scattered clouds
331,Lakhipur,IN,26.0299,90.3041,78.57,90,99,2.73,overcast clouds
332,Tifton,US,31.4505,-83.5085,85.96,74,1,0.0,clear sky
333,Vila Velha,BR,-20.3297,-40.2925,82.35,51,20,8.05,few clouds
334,Fairbanks,US,64.8378,-147.7164,48.54,91,90,0.0,overcast clouds
335,San Angelo,US,31.4638,-100.437,85.53,63,20,1.01,few clouds
336,Maceio,BR,-9.6658,-35.7353,78.24,78,75,10.36,broken clouds
337,Lukovetskiy,RU,64.2956,41.9211,66.18,71,85,6.69,overcast clouds
338,Ferrol,ES,43.4832,-8.2369,74.23,87,2,10.47,clear sky
339,Guerrero Negro,MX,27.9769,-114.0611,76.05,73,30,12.03,scattered clouds
340,Sucua,EC,-2.4667,-78.1667,72.34,43,75,2.3,light rain
341,Santa Isabel Do Rio Negro,BR,-0.4139,-65.0192,82.06,64,100,4.56,overcast clouds
342,Tecpan,GT,14.7623,-90.9947,63.36,63,78,4.09,broken clouds
343,Griffith,US,41.5284,-87.4237,77.99,52,1,1.99,clear sky
344,Pangkalanbuun,ID,-2.6833,111.6167,75.02,97,100,2.21,overcast clouds
345,Cheney,US,47.4874,-117.5758,69.82,42,90,3.44,smoke
346,Port Shepstone,ZA,-30.7414,30.455,58.15,80,100,9.91,overcast clouds
347,Koumac,NC,-20.5667,164.2833,64.56,72,39,7.45,scattered clouds
348,Vanimo,PG,-2.6741,141.3028,78.44,90,95,6.85,overcast clouds
349,Luena,AO,-11.7833,19.9167,86.34,10,3,4.9,clear sky
350,Lata,PT,40.1629,-8.3327,75.92,17,68,11.05,broken clouds
351,Bedesa,ET,8.9,40.7833,69.6,72,55,7.76,light rain
352,Lagoa,PT,39.05,-27.9833,73.56,82,48,2.46,scattered clouds
353,Toora-Khem,RU,52.4675,96.11,56.75,88,13,3.33,few clouds
354,Namatanai,PG,-3.6667,152.4333,79.29,82,15,8.79,few clouds
355,Ca Mau,VN,9.1769,105.15,80.6,80,100,3.36,overcast clouds
356,Barreirinha,BR,-2.7933,-57.07,84.9,66,100,2.68,overcast clouds
357,Thinadhoo,MV,0.5333,72.9333,83.16,71,40,17.11,scattered clouds
358,Baturaja,ID,-4.1333,104.1667,73.17,98,92,1.9,overcast clouds
359,Mishkino,RU,55.3389,63.9175,73.63,31,6,5.68,clear sky
360,Hattiesburg,US,31.3271,-89.2903,88.29,66,1,0.0,clear sky
361,Raudeberg,NO,61.9875,5.1352,59.67,88,100,1.54,overcast clouds
362,Hay River,CA,60.8156,-115.7999,69.78,56,75,12.66,broken clouds
363,Lorengau,PG,-2.0226,147.2712,80.89,83,37,10.13,scattered clouds
364,Santa Maria,BR,-29.6842,-53.8069,63.7,77,40,5.75,scattered clouds
365,Santa Cruz,BO,-17.8,-63.1667,73.45,25,5,13.8,clear sky
366,Comarapa,BO,-17.9,-64.4833,63.55,49,8,3.49,clear sky
367,Sehithwa,BW,-20.4667,22.7167,83.98,17,66,10.13,broken clouds
368,Mizdah,LY,31.4451,12.9801,94.87,18,0,11.81,clear sky
369,Quesnel,CA,52.9999,-122.5029,59.5,82,1,2.3,clear sky
370,Chapleau,CA,47.8405,-83.4034,60.89,55,20,8.05,few clouds
371,Fort Wellington,GY,6.4,-57.6,84.24,68,89,7.54,overcast clouds
372,Saa,CM,4.3667,11.45,83.41,55,72,7.4,broken clouds
373,Brookhaven,US,31.5791,-90.4407,86.95,66,19,2.17,few clouds
374,Fortuna,US,40.5982,-124.1573,55.98,96,90,0.0,overcast clouds
375,San Juan De Los Morros,VE,9.9115,-67.3538,76.93,89,100,3.58,light rain
376,Quatre Cocos,MU,-20.2078,57.7625,73.51,81,12,13.15,light rain
377,Whitehorse,CA,60.7161,-135.0538,52.57,71,90,6.91,overcast clouds
378,Torbay,CA,47.6666,-52.7314,76.75,90,90,9.22,light rain
379,Tucuma,BR,-0.1833,-50.05,87.1,62,35,7.72,scattered clouds
380,Nome,US,64.5011,-165.4064,48.27,87,90,16.11,light rain
381,Yishui,CN,35.7847,118.6281,66.11,84,3,4.97,light rain
382,Rio Do Sul,BR,-27.2142,-49.6431,59.9,96,100,1.16,light rain
383,Dese,ET,11.1333,39.6333,65.64,66,12,3.83,light rain
384,Ossora,RU,59.2353,163.0719,54.91,84,23,3.47,few clouds
385,Tigzirt,DZ,36.8886,4.1198,93.38,43,4,13.2,clear sky
386,Borisoglebskiy,RU,57.2586,39.1508,73.04,58,74,5.21,broken clouds
387,Bihoro,JP,43.8228,144.1044,50.38,94,100,6.17,overcast clouds
388,Hambantota,LK,6.1241,81.1185,80.56,73,87,21.18,overcast clouds
389,Bambanglipuro,ID,-7.95,110.2833,77.34,85,83,6.55,broken clouds
390,Zhovkva,UA,50.0583,23.9726,83.41,47,54,3.85,broken clouds
391,Camapua,BR,-19.5314,-54.0439,89.67,21,0,5.93,clear sky
392,Olafsvik,IS,64.8945,-23.7142,54.64,80,85,11.43,overcast clouds
393,Beitbridge,ZW,-22.2167,30.0,63.91,53,100,18.19,overcast clouds
394,Kasongo,CD,-4.45,26.6667,90.68,30,98,1.03,overcast clouds
395,Eureka,US,40.8021,-124.1637,56.25,90,31,4.88,scattered clouds
396,Key West,US,24.5557,-81.7826,89.6,69,40,20.71,scattered clouds
397,Tezu,IN,27.9167,96.1667,75.69,98,100,1.5,overcast clouds
398,Ishigaki,JP,24.3448,124.1572,82.83,85,6,16.31,clear sky
399,San Vito Al Tagliamento,IT,45.9144,12.85,97.88,42,0,2.82,clear sky
400,Brownwood,US,31.7093,-98.9912,84.2,58,75,4.61,broken clouds
401,Zaysan,KZ,47.4667,84.8667,62.56,68,100,5.57,overcast clouds
402,Marigot,MF,18.0667,-63.0833,88.02,74,75,14.97,broken clouds
403,Hamilton,US,39.1834,-84.5333,79.41,65,75,3.0,broken clouds
404,Komsomolets,KZ,53.7453,62.0708,73.09,33,8,2.89,clear sky
405,Itigi,TZ,-5.7,34.4833,79.45,25,6,9.6,clear sky
406,Port Hardy,CA,50.6996,-127.4199,59.18,88,75,3.44,broken clouds
407,Cortez,US,37.3489,-108.5859,72.41,64,1,4.61,clear sky
408,Bengkulu,ID,-3.8004,102.2655,77.4,89,94,4.9,overcast clouds
409,Ylivieska,FI,64.0833,24.55,61.88,91,100,5.7,light rain
410,Kralendijk,BQ,12.15,-68.2667,87.78,70,75,12.66,broken clouds
411,Volsk,RU,52.0333,47.3833,88.88,17,100,4.9,overcast clouds
412,Kargasok,RU,59.0556,80.8572,58.62,87,95,5.14,overcast clouds
413,Matara,LK,5.9485,80.5353,78.93,84,90,13.53,overcast clouds
414,Mercedes,AR,-34.6515,-59.4307,62.85,65,0,2.62,clear sky
415,Labuhan,ID,-6.8844,112.2051,79.68,78,67,8.99,broken clouds
416,Kedrovyy,RU,56.1667,91.8167,55.81,89,100,3.98,overcast clouds
417,Fasa,IR,28.9383,53.6482,97.84,12,20,11.5,few clouds
418,Kysyl-Syr,RU,63.8986,122.7617,58.68,57,96,5.93,overcast clouds
419,Naze,JP,28.3667,129.4833,78.42,88,100,14.65,overcast clouds
420,Mehamn,NO,71.0357,27.8492,50.29,84,100,14.23,overcast clouds
421,Paamiut,GL,61.994,-49.6678,44.58,99,100,14.45,overcast clouds
422,Anadyr,RU,64.75,177.4833,55.9,88,0,2.24,clear sky
423,Westport,US,41.1415,-73.3579,88.75,77,20,1.01,few clouds
424,Kaitangata,NZ,-46.2817,169.8464,46.15,76,96,14.27,overcast clouds
425,San Mateo Del Mar,MX,16.2,-95.0,83.73,68,3,26.49,clear sky
426,Kudahuvadhoo,MV,2.6708,72.8944,82.85,74,56,17.43,broken clouds
427,Necochea,AR,-38.5473,-58.7368,59.04,56,0,10.76,clear sky
428,Macarthur,PH,10.8347,124.9953,78.22,88,52,1.92,broken clouds
429,Champasak,LA,14.75,106.0,73.26,98,100,1.19,overcast clouds
430,Gamba,GA,-2.65,10.0,77.45,78,97,10.74,overcast clouds
431,Yablonovo,RU,50.8523,37.3574,76.86,33,100,10.29,overcast clouds
432,Dunedin,NZ,-45.8742,170.5036,49.8,47,81,15.01,broken clouds
433,Chicama,PE,-7.8447,-79.1469,63.14,64,58,6.55,broken clouds
434,San Patricio,US,28.017,-97.5169,91.26,62,27,3.85,scattered clouds
435,Hualmay,PE,-11.0964,-77.6139,64.96,74,41,6.67,scattered clouds
436,Ixtapa,MX,20.7,-105.2,83.23,74,75,0.0,broken clouds
437,Outjo,NA,-20.1167,16.15,83.95,9,3,11.86,clear sky
438,Ponezhukay,RU,44.8876,39.3855,70.72,86,100,10.36,overcast clouds
439,Bongandanga,CD,1.5,21.05,91.58,37,81,4.05,broken clouds
440,Ternate,ID,0.8,127.4,80.15,78,69,2.68,broken clouds
441,Marienburg,PL,54.0359,19.0266,76.95,37,75,10.31,broken clouds
442,Port-Cartier,CA,50.0334,-66.8654,64.92,100,100,4.76,overcast clouds
443,Saint-Augustin,CA,51.226,-58.6502,76.03,69,51,9.35,broken clouds
444,Camocim,BR,-2.9022,-40.8411,90.63,48,64,10.45,broken clouds
445,Skjervoy,NO,70.0311,20.9714,49.82,76,24,6.31,few clouds
446,Pareora,NZ,-44.4871,171.2132,40.6,61,6,7.47,clear sky
447,Madridejos,ES,39.4682,-3.532,109.35,6,22,16.46,few clouds
448,Naples,IT,40.8333,14.25,100.85,35,0,5.01,clear sky
449,Ahome,MX,25.9167,-109.1833,86.09,84,23,3.0,few clouds
450,Plettenberg Bay,ZA,-34.0527,23.3716,59.13,70,5,14.97,clear sky
451,Redmond,US,47.674,-122.1215,71.46,80,6,4.0,clear sky
452,Bilma,NE,18.6853,12.9164,105.22,12,18,7.23,few clouds
453,Shakawe,BW,-18.3667,21.85,86.47,11,63,7.81,broken clouds
454,Babu,CN,24.4167,111.5167,78.04,94,100,3.06,light rain
455,Boguchany,RU,58.3814,97.4531,60.6,99,100,2.37,heavy intensity rain
456,Tazmalt,DZ,36.3868,4.3989,107.31,9,18,17.2,few clouds
457,Basqal,AZ,40.7552,48.391,82.92,29,9,13.85,clear sky
458,Gorontalo,ID,0.5412,123.0595,74.82,95,94,3.56,overcast clouds
459,Olden,NO,61.8364,6.8064,59.16,94,100,2.68,light rain
460,Santa Rosa,PH,14.3122,121.1114,80.11,77,100,1.36,overcast clouds
461,Vao,NC,-22.6667,167.4833,66.18,61,16,15.37,few clouds
462,Barcelona,ES,41.3888,2.159,108.19,48,0,3.0,clear sky
463,Buraydah,SA,26.326,43.975,109.85,8,28,7.23,scattered clouds
464,Abeche,TD,13.8292,20.8324,84.6,54,99,11.97,overcast clouds
465,Inuvik,CA,68.3499,-133.7218,47.26,90,75,3.44,broken clouds
466,Ginda,IN,30.6945,78.4932,65.17,91,9,3.29,clear sky
467,Palmer,US,42.1584,-72.3287,84.51,73,75,5.75,broken clouds
468,Karratha,AU,-20.7377,116.8463,71.94,40,61,8.88,broken clouds
469,Krasnoselkup,RU,65.7,82.4667,61.47,73,100,6.73,overcast clouds
470,Holalkere,IN,14.0333,76.1833,71.01,87,100,13.94,overcast clouds
471,Acari,PE,-15.4311,-74.6158,71.38,56,67,7.36,broken clouds
472,Cleveland,US,41.4995,-81.6954,78.71,69,20,8.05,few clouds
473,Sopelana,ES,43.3789,-2.9831,91.29,83,75,3.0,broken clouds
474,Alyangula,AU,-13.8483,136.4192,72.88,87,6,8.9,clear sky
475,Virginia Beach,US,36.8529,-75.978,91.02,69,20,11.5,few clouds
476,Kimberley,ZA,-28.7323,24.7623,44.29,100,90,12.66,heavy intensity rain
477,Kembe,CF,4.6228,21.8865,82.85,66,53,1.23,broken clouds
478,Fereydun Kenar,IR,36.6864,52.5225,88.11,72,70,6.31,broken clouds
479,Winchester,GB,51.0651,-1.3187,76.64,57,20,4.0,few clouds
480,Santo Antonio Do Ica,BR,-3.1022,-67.9397,78.06,81,100,0.67,overcast clouds
481,Mathathane,BW,-22.2687,28.7495,60.98,58,100,19.95,overcast clouds
482,Morondava,MG,-20.2833,44.2833,76.05,70,0,19.42,clear sky
483,Oussouye,SN,12.485,-16.5469,85.32,65,100,10.33,overcast clouds
484,Darovskoy,RU,58.77,47.9564,69.15,60,98,4.56,overcast clouds
485,Cravo Norte,CO,6.3017,-70.2041,73.56,94,100,6.51,overcast clouds
486,Englehart,CA,47.8169,-79.8664,60.82,63,75,13.8,broken clouds
487,Inongo,CD,-1.95,18.2667,77.14,60,67,1.12,light rain
488,Santa Marta,CO,11.2408,-74.199,84.34,66,27,2.71,scattered clouds
489,Palafrugell,ES,41.9174,3.1631,102.07,91,2,3.0,clear sky
490,Carolina,PR,18.3808,-65.9574,91.09,74,40,16.11,haze
491,Repatriacion,PY,-25.5333,-55.95,75.25,52,45,1.68,scattered clouds
492,Shimoda,JP,34.6667,138.95,80.71,93,100,20.78,overcast clouds
493,Andenes,NO,69.3143,16.1194,51.78,76,90,12.66,overcast clouds
494,Mananara,MG,-16.1667,49.7667,70.48,87,16,8.57,light rain
495,Toamasina,MG,-18.1667,49.3833,75.2,78,40,12.66,light rain
496,Nuuk,GL,64.1835,-51.7216,54.21,87,75,34.52,broken clouds
497,Dali,CN,25.7,100.1833,63.75,96,100,2.77,light rain
498,Sulangan,PH,11.1373,123.7228,82.87,71,26,6.8,scattered clouds
499,Coihaique,CL,-45.5752,-72.0662,47.01,66,75,4.61,broken clouds
500,Tilichiki,RU,60.4667,166.1,49.08,89,85,2.1,overcast clouds
501,Buin,CL,-33.7333,-70.75,57.52,25,65,4.43,broken clouds
502,Elliot Lake,CA,46.3834,-82.6331,62.69,44,0,9.73,clear sky
503,Tuatapere,NZ,-46.1333,167.6833,44.82,84,89,7.18,overcast clouds
504,San Andres,CO,12.5847,-81.7006,86.02,20,75,12.66,broken clouds
505,Thunder Bay,CA,48.4001,-89.3168,71.29,52,20,4.61,few clouds
506,Lasa,IT,46.6166,10.7002,88.02,57,59,4.68,broken clouds
507,Fare,PF,-16.7,-151.0167,78.01,76,3,6.51,clear sky
508,Fukue,JP,32.6881,128.8419,78.21,81,100,16.67,light rain
509,Khash,IR,28.2211,61.2158,87.8,12,7,15.57,clear sky
510,Brunico,IT,46.7958,11.9364,88.39,41,29,3.87,scattered clouds
511,Langarud,IR,37.197,50.1535,86.05,60,2,4.0,clear sky
512,Kyshtovka,RU,56.555,76.6271,57.96,88,99,5.12,overcast clouds
513,Ostrovnoy,RU,68.0531,39.5131,50.61,81,91,15.99,overcast clouds
514,Sola,VU,-13.8833,167.55,77.31,81,83,26.69,broken clouds
515,Prince Albert,CA,53.2001,-105.7677,71.55,53,90,4.61,overcast clouds
516,Noumea,NC,-22.2763,166.4572,58.98,67,61,10.07,broken clouds
517,Bestobe,KZ,52.4994,73.0975,63.32,55,100,9.01,overcast clouds
518,Haimen,CN,23.1935,116.6142,78.69,88,100,9.37,overcast clouds
519,Marawi,PH,7.9986,124.2928,65.64,93,96,2.08,overcast clouds
520,Beringovskiy,RU,63.05,179.3167,54.99,78,98,10.18,overcast clouds
521,Tessalit,ML,20.1986,1.0114,108.99,6,3,16.02,clear sky
522,Haines Junction,CA,60.7522,-137.5108,42.75,100,100,1.14,light rain
523,Ambunti,PG,-4.2365,142.8448,74.03,98,99,1.74,overcast clouds
524,Avera,US,33.194,-82.5271,88.93,57,82,3.22,broken clouds
525,Ouesso,CG,1.6136,16.0517,84.6,59,99,2.93,overcast clouds
526,Husavik,IS,66.0449,-17.3389,57.11,94,100,11.41,overcast clouds
527,Bella Union,UY,-30.2752,-57.6007,64.18,68,46,5.26,scattered clouds
528,Presidencia Roque Saenz Pena,AR,-26.7852,-60.4388,67.68,34,83,4.94,broken clouds
529,Starkville,US,33.4504,-88.8184,85.51,78,75,0.0,broken clouds
530,Mulege,MX,26.8833,-111.9833,86.43,60,21,1.79,few clouds
531,Mananjary,MG,-21.2167,48.3333,67.91,76,99,12.84,overcast clouds
532,Hami,CN,42.8,93.45,93.29,15,66,7.61,broken clouds
533,Sosua,DO,19.7667,-70.5167,89.53,83,20,6.91,few clouds
534,Kirkland Lake,CA,48.1446,-80.0377,59.29,58,19,9.73,few clouds
535,Pimentel,PE,-6.8367,-79.9342,70.09,80,0,3.0,clear sky
536,Merauke,ID,-8.4667,140.3333,77.32,87,98,15.23,overcast clouds
537,Kimparana,ML,12.8347,-4.9244,82.04,68,98,7.36,overcast clouds
538,Kieta,PG,-6.2167,155.6333,79.03,84,100,7.23,overcast clouds
539,Teahupoo,PF,-17.8333,-149.2667,67.96,75,15,9.17,light rain
540,Torquay,GB,50.4638,-3.5143,75.06,76,16,5.01,few clouds
541,Slobidka,UA,47.8869,29.3461,80.13,33,0,3.27,clear sky
542,Beloha,MG,-25.1667,45.05,61.18,63,81,12.01,broken clouds
543,Muzhi,RU,65.3667,64.6667,71.35,56,99,16.64,overcast clouds
544,Yaan,NG,7.3833,8.5667,84.22,67,87,4.32,overcast clouds
545,Soyo,AO,-6.1349,12.3689,76.51,77,61,11.5,broken clouds
546,Zhicheng,CN,30.2956,111.5047,71.15,86,89,4.54,light rain
547,Tondano,ID,1.3038,124.9112,69.89,92,88,3.53,overcast clouds
548,Sumbe,AO,-11.2061,13.8437,75.24,78,20,9.95,few clouds
549,Adrar,MR,20.5022,-10.0711,105.85,14,1,9.6,clear sky
550,Altay,CN,47.8667,88.1167,66.06,47,100,9.53,overcast clouds
551,Aklavik,CA,68.2191,-135.0107,47.23,87,40,5.75,haze
552,Aasiaat,GL,68.7098,-52.8699,38.5,99,98,5.84,overcast clouds
553,Jishui,CN,33.7333,115.4,70.29,91,18,5.77,light rain
554,Sydney,AU,-33.8679,151.2073,52.74,84,0,1.99,clear sky
555,Gweta,BW,-20.1833,25.2333,81.68,19,54,12.15,broken clouds
556,Porto Seguro,BR,-16.4497,-39.0647,77.52,65,20,8.05,few clouds
557,Ranau,MY,5.9538,116.6641,74.05,98,92,0.78,overcast clouds
558,Villa Carlos Paz,AR,-31.4241,-64.4978,58.28,23,0,4.14,clear sky
559,Rio Tercero,AR,-32.173,-64.1141,62.47,26,0,5.28,clear sky
560,Cap Malheureux,MU,-19.9842,57.6142,73.89,71,1,1.99,clear sky
561,Iguape,BR,-24.7081,-47.5553,66.69,86,93,3.67,overcast clouds
562,Bandarbeyla,SO,9.4942,50.8122,77.43,84,78,32.59,broken clouds
563,Caucaia,BR,-3.7361,-38.6531,87.75,51,0,14.97,clear sky
564,Mtwara,TZ,-10.2667,40.1833,80.31,54,3,16.11,clear sky
565,Port Hedland,AU,-20.3167,118.5667,66.25,48,90,2.3,overcast clouds
566,Mwinilunga,ZM,-11.7358,24.4293,84.34,14,0,6.82,clear sky
567,San Luis,AR,-33.295,-66.3356,61.74,19,0,9.91,clear sky
568,Shakiso,ET,5.75,38.9167,66.31,71,100,1.9,light rain
569,Parana,AR,-31.732,-60.5238,66.54,58,0,1.81,clear sky
570,Sur,OM,22.5667,59.5289,89.29,60,31,5.79,scattered clouds
571,Oliva,ES,38.9197,-0.1194,90.72,48,0,8.72,clear sky
572,Mareeba,AU,-17.0,145.4333,66.43,88,75,3.09,broken clouds
573,Hameenlinna,FI,60.996,24.4643,64.74,51,66,10.87,broken clouds
574,Novyy Svit,UA,47.8059,38.0211,65.23,85,100,15.95,overcast clouds
575,Itupiranga,BR,-5.1347,-49.3267,89.92,38,2,1.79,clear sky
576,Tadine,NC,-21.55,167.8833,67.32,58,100,14.32,overcast clouds
577,Rio Cuarto,AR,-33.1307,-64.3499,62.37,34,0,6.91,clear sky
578,Boende,CD,-0.2167,20.8667,88.21,51,54,4.61,broken clouds
579,Yorosso,ML,12.3536,-4.7761,78.66,76,99,7.07,light rain
580,Nioro,GM,13.35,-15.75,89.69,56,99,5.35,overcast clouds
581,Qasigiannguit,GL,68.8193,-51.1922,53.85,93,99,4.72,overcast clouds
582,Sapele,NG,5.8941,5.6767,82.27,73,77,8.08,light rain
583,Tukrah,LY,32.5341,20.5791,84.79,60,0,23.35,clear sky
584,San Juan,AR,-31.5375,-68.5364,62.49,24,0,5.82,clear sky
585,Los Negros,BO,-17.7333,-63.4333,73.53,22,20,5.26,few clouds
586,Bucerias,MX,20.75,-105.3333,82.98,74,75,0.0,broken clouds
587,Bonavista,CA,48.6499,-53.1147,80.6,91,83,5.79,broken clouds
588,Pimenteiras,BR,-6.2453,-41.4192,93.07,27,22,7.63,few clouds
589,Kamaishi,JP,39.2667,141.8833,66.69,95,100,11.39,heavy intensity rain
590,Mayo,US,38.8876,-76.5119,88.74,78,1,1.01,clear sky
591,Anuppur,IN,23.1,81.6833,77.95,83,98,4.45,overcast clouds
592,Wageningen,NL,51.9667,5.6667,77.25,62,75,5.01,broken clouds
593,Ambanja,MG,-13.6833,48.45,74.95,78,0,3.31,clear sky
594,Iracoubo,GF,5.4802,-53.2011,84.06,71,62,10.0,broken clouds
595,Mangrol,IN,21.1167,70.1167,80.76,80,99,17.07,overcast clouds
596,Nileshwar,IN,12.25,75.1,78.48,83,100,8.19,overcast clouds
597,West Wendover,US,40.7391,-114.0733,79.81,26,1,0.0,clear sky
598,Hirara,JP,24.8,125.2833,82.54,84,17,15.82,few clouds
599,Pulandian,CN,39.3953,121.9669,73.53,91,0,0.78,light rain
600,Tolaga Bay,NZ,-38.3667,178.3,48.13,82,62,8.72,broken clouds
601,Darnah,LY,32.767,22.6367,82.2,63,0,18.66,clear sky
602,Sao Jose Da Coroa Grande,BR,-8.8978,-35.1478,78.17,74,68,8.68,broken clouds
603,Gat,IL,31.61,34.7642,90.39,25,0,12.97,clear sky
604,Payo,ID,-3.7508,103.6372,74.03,98,100,1.19,overcast clouds
605,Blagoyevo,RU,63.3667,47.9167,61.92,83,34,11.03,scattered clouds
606,Wanaka,NZ,-44.7,169.15,32.13,81,7,5.61,clear sky
607,Boa Vista,BR,2.8197,-60.6733,82.38,69,75,5.75,broken clouds
608,Bathsheba,BB,13.2167,-59.5167,77.61,88,75,3.44,broken clouds
609,Gornopravdinsk,RU,60.05,69.9,65.75,67,1,6.38,clear sky
610,Yerbogachen,RU,61.2767,108.0108,60.64,81,98,0.83,overcast clouds
611,Nebug,RU,44.1714,39.0036,72.16,87,100,4.59,overcast clouds
612,Mglin,RU,53.0591,32.8475,76.21,42,69,1.14,broken clouds
613,Padang,ID,-0.9492,100.3543,77.65,91,100,6.33,light rain
614,Durgapur,IN,23.4833,87.3167,86.13,73,100,8.08,overcast clouds
615,Shahrud,IR,36.4182,54.9763,81.1,32,21,13.85,few clouds
616,Tornio,FI,65.8481,24.1466,69.82,63,35,1.86,scattered clouds
617,Alcudia,ES,39.8532,3.1214,101.7,49,0,0.47,clear sky
618,Mushie,CD,-3.0167,16.9,97.45,27,71,2.91,broken clouds
619,Adwa,ET,14.1646,38.8955,68.81,76,50,7.23,scattered clouds
620,Tabou,CI,4.423,-7.3528,80.06,61,74,8.14,broken clouds
621,Aksarka,RU,66.5606,67.7975,68.86,73,77,5.73,broken clouds
622,Alugan,PH,12.2188,125.4808,79.38,81,100,6.96,overcast clouds
623,Sebu,PH,6.22,124.6936,69.82,90,21,0.38,few clouds
624,Torrington,US,41.8007,-73.1212,82.13,83,88,4.65,overcast clouds
625,Diamantino,BR,-14.4086,-56.4461,89.47,27,25,7.07,scattered clouds
626,Luganville,VU,-15.5333,167.1667,74.16,85,97,12.95,overcast clouds
627,Novyy Urengoy,RU,66.0833,76.6333,64.06,74,100,12.46,overcast clouds
628,Bauska,LV,56.4075,24.1906,69.55,48,97,14.67,overcast clouds
629,Aldan,RU,58.6031,125.3894,60.6,63,17,8.9,few clouds
630,Cianjur,ID,-6.8224,107.1393,75.47,95,24,0.2,few clouds
631,Vestmanna,FO,62.1564,-7.1664,50.92,93,75,8.05,broken clouds
632,Hobyo,SO,5.3505,48.5268,78.49,79,63,28.9,broken clouds
633,Bull Savanna,JM,17.8868,-77.5902,83.8,59,33,5.53,scattered clouds
634,Talcahuano,CL,-36.7167,-73.1167,46.08,76,90,5.75,overcast clouds
635,College,US,64.8569,-147.8028,48.52,91,75,3.44,broken clouds
636,Kupang,ID,-10.1667,123.5833,76.98,77,5,12.28,clear sky
637,Morro Bay,US,35.3658,-120.8499,69.58,66,42,1.01,scattered clouds
638,Kaka,TM,37.3482,59.6143,88.63,15,0,8.75,clear sky
639,Rudsar,IR,37.1376,50.288,86.05,65,1,3.2,clear sky
640,Turka,UA,49.1541,23.0297,78.26,46,24,5.39,few clouds
641,Nunkini,MX,20.3333,-90.1833,84.16,51,21,3.87,few clouds
642,Lang Suan,TH,9.9456,99.0785,79.52,83,100,4.61,overcast clouds
643,Taywarah,AF,33.35,64.4167,63.23,19,1,16.62,clear sky
644,Manavalakurichi,IN,8.1333,77.3,82.49,80,100,19.28,overcast clouds
645,Togur,RU,58.3631,82.8265,56.77,73,86,5.73,overcast clouds
646,Porosozero,RU,62.7191,32.727,60.51,92,100,8.99,light rain
647,Birao,CF,10.2849,22.7882,78.48,87,99,4.16,light rain
648,Camacha,PT,33.0833,-16.3333,75.96,73,20,16.11,few clouds
649,Ibra,OM,22.6906,58.5334,101.35,22,85,14.45,overcast clouds
650,Idlib,SY,35.9306,36.6339,87.19,35,0,18.86,clear sky
651,Moron,AR,-34.6534,-58.6198,63.0,79,0,2.13,clear sky
652,Dwarka,IN,22.2394,68.9678,80.64,81,100,19.26,overcast clouds
653,Goranboy,AZ,40.6103,46.7897,95.29,31,21,21.97,few clouds
654,Palana,RU,59.1167,159.9667,48.24,87,29,10.96,scattered clouds
655,Beipiao,CN,41.7919,120.7792,64.83,77,69,2.55,light rain
656,Manzanillo,CU,20.3433,-77.1167,85.21,58,51,6.78,broken clouds
657,Ust-Tsilma,RU,65.441,52.1498,53.13,95,100,18.84,overcast clouds
658,Sheltozero,RU,61.3667,35.3667,65.37,80,96,10.07,overcast clouds
659,Stornoway,GB,58.2093,-6.3865,60.93,77,75,5.75,broken clouds
660,Anqing,CN,30.5092,117.0506,71.76,98,100,5.14,light rain
661,Great Yarmouth,GB,52.6083,1.7305,74.44,68,100,11.65,overcast clouds
662,Synya,RU,65.3718,58.0387,56.98,86,70,15.75,broken clouds
663,Isla Mujeres,MX,21.2311,-86.731,86.05,65,0,3.51,clear sky
664,Vaitape,PF,-16.5167,-151.75,77.92,75,7,5.73,clear sky
665,Poum,NC,-20.2333,164.0167,69.13,66,46,17.02,scattered clouds
666,Rawson,AR,-43.3002,-65.1023,54.45,56,25,12.64,scattered clouds
667,Baft,IR,29.234,56.6057,85.17,10,66,2.57,broken clouds
668,Ust-Maya,RU,60.4167,134.5333,64.92,62,71,2.42,broken clouds
669,Itarema,BR,-2.9248,-39.9167,89.42,45,76,15.32,broken clouds
670,Along,IN,28.1667,94.7667,74.82,100,100,0.74,overcast clouds
671,Xiashi,CN,30.5363,120.6864,75.22,97,100,4.41,overcast clouds
